{"version": 0.6, "generator": "Overpass API 0.7.62.8 e802775f", "osm3s": {"timestamp_osm_base": "2025-10-11T00:45:13Z", "copyright": "The data included in this document is from www.openstreetmap.org. The data is made available under ODbL."}, "elements": [{"type": "node", "id": 3453359305, "lat": 39.7418369, "lon": -77.1010609}, {"type": "node", "id": 3453359306, "lat": 39.7413738, "lon": -77.1009587}, {"type": "node", "id": 3453359307, "lat": 39.7414608, "lon": -77.1003126}, {"type": "node", "id": 3453359308, "lat": 39.7419295, "lon": -77.1004221}, {"type": "node", "id": 3453359309, "lat": 39.7419127, "lon": -77.1005389}, {"type": "node", "id": 3453359509, "lat": 39.7417486, "lon": -77.1003798}, {"type": "way", "id": 338258706, "nodes": [3453359305, 3453359306, 3453359307, 3453359509, 3453359308, 3453359309, 3453359305], "tags": {"addr:city": "Littlestown", "addr:housenumber": "790", "addr:postcode": "17340-1418", "addr:state": "PA", "addr:street": "West King Street", "addr:unit": "3", "building": "yes", "name": "Ace Hardware", "opening_hours": "Mo-Sa 08:00-19:00; Su 09:00-16:00", "phone": "+1 717-359-7038", "ref": "14176", "shop": "doityourself"}}]}